City_ID,City,Lat,Lng,Max Temp,Humidity,Cloudiness,Wind Speed,Country,Date
0,port-aux-francais,-49.35,70.2167,1.33,99,100,11.46,TF,1720808080
1,dolores,-36.3132,-57.6792,10.73,54,5,2.56,AR,1720808081
2,isetskoye,56.4858,65.3226,19.51,85,62,2.5,RU,1720808083
3,port elizabeth,-33.918,25.5701,15.05,86,78,0.45,ZA,1720807834
4,blackmans bay,-43.0167,147.3167,6.4,87,75,0.45,AU,1720808085
5,keflavik,64.0049,-22.5624,11.95,100,100,12.86,IS,1720808086
6,west island,-12.1568,96.8225,26.99,78,20,3.6,CC,1720808087
7,okha,53.5739,142.9478,9.23,96,100,1.81,RU,1720808088
8,ushuaia,-54.8,-68.3,8.79,70,40,15.43,AR,1720807831
9,adamstown,-25.066,-130.1015,19.56,87,100,5.96,PN,1720807959
10,sitka,57.0531,-135.33,12.94,94,100,3.09,US,1720808092
11,tiksi,71.6872,128.8694,1.82,92,73,5.53,RU,1720808093
12,thompson,55.7435,-97.8558,19.09,59,40,4.12,CA,1720808094
13,fale old settlement,-9.3852,-171.2468,28.83,72,56,7.69,TK,1720808096
14,bethel,41.3712,-73.414,28.05,72,100,2.57,US,1720808098
15,nova sintra,14.8667,-24.7167,25.1,78,28,3.83,CV,1720808099
16,tofol,5.3248,163.0078,27.5,82,100,5.25,FM,1720808100
17,saimbeyli,37.9863,36.0906,15.78,84,34,1.57,TR,1720808101
18,riberalta,-10.9833,-66.1,25.11,53,20,7.72,BO,1720808102
19,iqaluit,63.7506,-68.5145,9.85,62,75,8.23,CA,1720808103
20,puerto natales,-51.7236,-72.4875,11.25,46,20,7.72,CL,1720808105
21,elizabeth city,36.2946,-76.2511,31.12,77,75,2.57,US,1720808106
22,karagay,58.2667,54.9368,13.05,71,82,3.68,RU,1720808107
23,punta arenas,-53.15,-70.9167,8.01,70,75,7.2,CL,1720807940
24,iskateley,67.6803,53.1512,11.72,67,100,1.07,RU,1720808109
25,klyuchi,52.2667,79.1667,21.55,67,6,2.74,RU,1720808110
26,ouallam,14.3188,2.0866,35.41,35,77,2.52,NE,1720808111
27,waitangi,-43.9535,-176.5597,8.79,90,18,1.79,NZ,1720808113
28,batesburg-leesville,33.9101,-81.5373,34.07,59,75,1.76,US,1720808114
29,manakara,-22.1333,48.0167,19.13,80,0,2.46,MG,1720808115
30,irati,-25.4672,-50.6511,12.08,99,100,1.09,BR,1720808116
31,uturoa,-16.7333,-151.4333,26.03,82,97,8.11,PF,1720808117
32,tolanaro,-25.0319,46.9987,21.04,68,0,8.23,MG,1720808118
33,kapuskasing,49.4169,-82.4331,27.05,53,75,4.63,CA,1720808119
34,grytviken,-54.2811,-36.5092,-2.38,87,82,4.27,GS,1720808121
35,olonkinbyen,70.9221,-8.7187,3.71,99,100,4.85,SJ,1720808122
36,vorkuta,67.5,64.0,9.92,75,100,3.66,RU,1720808123
37,enewetak,11.3474,162.3373,28.52,77,57,8.95,MH,1720808124
38,udachny,66.4167,112.4,19.67,61,29,3.27,RU,1720808125
39,newman,37.3138,-121.0208,37.19,11,1,2.2,US,1720808126
40,bilibino,68.0546,166.4372,12.05,53,9,0.95,RU,1720808128
41,edinburgh of the seven seas,-37.0676,-12.3116,10.14,61,15,7.71,SH,1720808129
42,warman,52.3168,-106.5679,23.95,64,75,4.63,CA,1720808130
43,port alfred,-33.5906,26.891,15.66,88,100,0.45,ZA,1720808131
44,charlestown,-32.95,151.6667,13.18,79,55,1.79,AU,1720808132
45,dalandzadgad,43.5708,104.425,24.73,32,19,2.02,MN,1720808133
46,ostersund,63.1792,14.6357,18.12,65,0,3.09,SE,1720808135
47,alice springs,-23.7,133.8833,9.75,66,19,4.12,AU,1720808137
48,avarua,-21.2078,-159.775,22.03,83,20,2.06,CK,1720808139
49,igarka,67.4667,86.5833,18.08,62,100,3.58,RU,1720808143
50,kununurra,-15.7667,128.7333,15.99,88,23,1.54,AU,1720808144
51,mar''ina horka,53.509,28.147,26.12,84,58,2.67,BY,1720808146
52,isafjordur,66.0755,-23.124,10.22,87,100,7.45,IS,1720808147
53,ust-nera,64.5667,143.2,19.81,51,100,2.34,RU,1720808148
54,puerto ayora,-0.7393,-90.3518,24.98,92,85,4.92,EC,1720808149
55,hotan,37.0997,79.9269,26.37,29,88,3.36,CN,1720808150
56,floro,61.5996,5.0328,20.04,72,20,7.72,NO,1720808152
57,qaqortoq,60.7167,-46.0333,4.14,91,100,2.0,GL,1720808153
58,monterrey,25.6667,-100.3167,25.37,44,97,10.73,MX,1720807976
59,aldan,58.6031,125.3894,13.68,84,53,1.76,RU,1720808155
60,ceelbuur,4.685,46.6176,26.59,68,96,9.11,SO,1720808157
61,kachug,53.9606,105.8817,16.67,94,99,1.61,RU,1720807930
62,hermanus,-34.4187,19.2345,13.78,80,52,7.24,ZA,1720808159
63,chichigalpa,12.5776,-87.027,32.84,55,40,2.06,NI,1720808160
64,samalut,28.3121,30.7101,36.91,15,3,4.43,EG,1720808162
65,grand falls-windsor,48.9332,-55.6649,23.61,76,46,3.92,CA,1720808163
66,charters towers,-20.1,146.2667,15.22,84,4,1.96,AU,1720808164
67,utrik,11.2278,169.8474,27.61,81,33,9.12,MH,1720808167
68,kantang,7.4054,99.5156,26.42,88,100,2.2,TH,1720808168
69,cambria,35.5641,-121.0808,35.31,63,42,2.56,US,1720808169
70,sittwe,20.15,92.9,27.34,84,99,2.0,MM,1720808170
71,st. john's,47.5649,-52.7093,18.77,87,100,3.09,CA,1720807972
72,villa mercedes,-33.6757,-65.4578,10.62,31,0,1.04,AR,1720808172
73,campoverde,-8.4753,-74.8058,24.83,44,81,2.13,PE,1720808174
74,kingston,17.997,-76.7936,33.98,64,60,3.52,JM,1720807759
75,codrington,-38.2667,141.9667,9.19,86,76,3.44,AU,1720808176
76,lincheng,19.9078,109.6858,27.03,87,94,3.11,CN,1720808177
77,tazacorte,28.629,-17.9293,22.54,78,20,6.69,ES,1720808178
78,nioki,-2.7167,17.6833,27.76,34,16,1.03,CD,1720808179
79,saint-pierre,-21.3393,55.4781,19.2,75,25,5.05,RE,1720808180
80,coquimbo,-29.9533,-71.3436,12.85,71,0,5.14,CL,1720808022
81,anadyr,64.75,177.4833,7.28,87,75,3.0,RU,1720808183
82,tazovsky,67.4667,78.7,14.58,88,74,3.87,RU,1720808184
83,turbat,26.0023,63.044,30.83,68,88,5.77,PK,1720808185
84,kapa'a,22.0752,-159.319,25.18,85,100,5.66,US,1720808186
85,wailua homesteads,22.0669,-159.378,24.44,87,100,5.66,US,1720808187
86,bikenibeu village,1.3673,173.1241,28.29,77,100,5.05,KI,1720808189
87,najran,17.4924,44.1277,36.36,17,99,2.02,SA,1720808190
88,ta`u,-14.2336,-169.5144,26.34,84,95,6.7,AS,1720808191
89,rokiskis,55.9667,25.5833,20.9,78,51,1.69,LT,1720808192
90,jalalabad,34.4265,70.4515,30.77,27,0,2.6,AF,1720808193
91,papao,-17.75,-149.55,25.82,84,98,9.9,PF,1720808194
92,kenai,60.5544,-151.2583,15.08,72,100,2.06,US,1720808195
93,glace bay,46.1969,-59.957,25.44,80,75,7.72,CA,1720808197
94,al ghayzah,16.2079,52.176,28.75,79,100,3.18,YE,1720808198
95,lebu,-37.6167,-73.65,11.2,57,0,2.72,CL,1720808199
96,hithadhoo,-0.6,73.0833,28.36,77,85,4.16,MV,1720808200
97,kalevala,65.2,31.1667,16.04,97,100,2.86,RU,1720808201
98,bodaybo,57.8506,114.1933,19.78,79,13,1.14,RU,1720808203
99,fuglafjordur,62.244,-6.814,12.26,90,47,4.54,FO,1720808204
100,longyearbyen,78.2186,15.6401,7.91,76,75,11.32,SJ,1720808205
101,quelimane,-17.8786,36.8883,22.97,83,0,3.36,MZ,1720808206
102,albany,42.6001,-73.9662,28.71,69,84,0.75,US,1720807952
103,rudne,49.8333,23.9,26.01,68,41,2.18,UA,1720808209
104,maumere,-8.6199,122.2111,24.35,69,64,5.27,ID,1720808210
105,yellowknife,62.456,-114.3525,18.29,36,75,6.17,CA,1720808211
106,redencao,-4.2258,-38.7306,26.94,72,96,2.12,BR,1720808212
107,invercargill,-46.4,168.35,0.45,92,0,1.68,NZ,1720808214
108,whitehorse,60.7161,-135.0538,13.94,58,90,5.81,CA,1720808215
109,qamdo,31.1667,97.2333,11.22,64,89,1.65,CN,1720808216
110,richards bay,-28.783,32.0377,18.95,83,0,2.01,ZA,1720808218
111,sogndal,61.2283,7.1003,25.21,53,75,0.0,NO,1720808219
112,zimapan,20.75,-99.35,22.29,61,100,2.67,MX,1720807982
113,mount gambier,-37.8333,140.7667,6.38,94,27,1.78,AU,1720808221
114,praia da vitoria,38.7333,-27.0667,29.14,61,40,5.46,PT,1720808222
115,gaalkacyo,6.7697,47.4308,29.48,51,71,11.94,SO,1720808224
116,gamay,12.3854,125.2979,24.69,95,84,1.62,PH,1720808225
117,nemuro,43.3236,145.575,13.52,98,4,1.8,JP,1720808226
118,kuningan,-6.9758,108.4831,18.64,95,76,2.42,ID,1720808227
119,isangel,-19.55,169.2667,22.44,86,8,3.21,VU,1720808228
120,at taj,24.2049,23.2857,34.07,16,0,4.74,LY,1720808230
121,thunder bay,48.4001,-89.3168,30.99,37,20,4.63,CA,1720808183
122,luderitz,-26.6481,15.1594,14.27,70,1,3.36,NA,1720808232
123,chabahar,25.2919,60.643,29.93,89,100,4.04,IR,1720808233
124,kodiak,57.79,-152.4072,10.73,87,100,6.69,US,1720808070
125,xilin hot,43.9667,116.0333,17.6,87,58,2.15,CN,1720808236
126,san felice circeo,41.2372,13.0942,32.4,63,0,4.1,IT,1720808229
127,jamestown,42.097,-79.2353,27.23,60,40,0.89,US,1720808238
128,hamilton,39.1834,-84.5333,31.66,60,5,2.76,US,1720808135
129,haiku-pauwela,20.9219,-156.3051,26.79,73,20,10.29,US,1720808240
130,dhidhdhoo,6.8833,73.1,28.01,81,100,7.58,MV,1720808241
131,usinsk,65.9939,57.5281,10.63,71,100,1.5,RU,1720808242
132,copiapo,-27.3667,-70.3333,12.83,34,0,2.46,CL,1720808218
133,antsiranana,-12.2787,49.2917,23.67,68,96,7.71,MG,1720808245
134,taroa,8.7058,171.2275,28.44,77,100,7.8,MH,1720808246
135,polyarnyy,69.1989,33.4478,13.54,96,100,1.8,RU,1720808248
136,aasiaat,68.7098,-52.8699,4.1,72,75,1.69,GL,1720808249
137,cidade velha,14.9167,-23.6167,26.26,73,100,4.12,CV,1720808251
138,papatowai,-46.5619,169.4708,3.39,90,12,4.1,NZ,1720808252
139,cockburn town,21.4612,-71.1419,28.65,84,100,8.91,TC,1720808253
140,vorgashor,67.5833,63.95,9.33,75,100,3.74,RU,1720808254
141,swan hill,-35.3378,143.5544,8.08,95,90,3.45,AU,1720808255
142,serra talhada,-7.9919,-38.2983,25.97,58,87,4.95,BR,1720808256
143,chernyshevsk,52.5243,117.0174,19.43,56,28,1.0,RU,1720808258
144,jimo,36.3897,120.4622,22.88,100,20,3.0,CN,1720808259
145,margaret river,-33.95,115.0667,10.22,85,100,2.96,AU,1720808260
146,acarau,-2.8856,-40.12,30.17,60,79,7.93,BR,1720808261
147,vernon,50.2581,-119.2691,30.89,24,1,1.54,CA,1720808262
148,kargasok,59.0556,80.8572,17.0,83,27,3.01,RU,1720808264
149,puerto deseado,-47.7503,-65.8938,10.24,53,2,3.22,AR,1720808265
150,hasaki,35.7333,140.8333,22.38,96,100,5.05,JP,1720808266
151,broome,42.2506,-75.833,28.59,72,100,2.06,US,1720808267
152,molchanovo,57.5817,83.7692,17.2,73,48,2.34,RU,1720808268
153,lagos,6.5833,3.75,24.88,88,89,3.41,NG,1720807718
154,salalah,17.0151,54.0924,27.05,94,100,1.54,OM,1720808271
155,alliance,40.9153,-81.1059,29.72,63,2,0.45,US,1720808091
156,gandarbal,34.2333,74.7833,19.76,72,60,2.46,IN,1720808273
157,ugoofaaru,5.6667,73.0,28.77,79,99,7.24,MV,1720808275
158,hawaiian paradise park,19.5933,-154.9731,25.96,81,100,2.06,US,1720808276
159,mariental,-24.6333,17.9667,16.37,15,0,5.31,NA,1720808277
160,bagua grande,-5.7561,-78.4411,31.1,50,40,2.92,PE,1720808278
161,takoradi,4.8845,-1.7554,24.72,86,95,5.07,GH,1720808279
162,xinyuan,37.3,99.0,8.45,96,100,0.98,CN,1720808281
163,kendari,-3.945,122.4989,22.82,96,98,1.14,ID,1720807749
164,upper grand lagoon,30.1633,-85.7408,35.08,62,0,5.14,US,1720808283
165,palikir - national government center,6.9248,158.1611,26.41,89,100,1.54,FM,1720808285
166,ribeira grande,38.5167,-28.7,25.22,83,40,10.8,PT,1720808287
167,babol,36.5513,52.679,25.04,69,0,1.59,IR,1720808288
168,wajir,1.7471,40.0573,26.69,63,100,9.55,KE,1720808289
169,stanley,54.868,-1.6985,12.77,76,40,3.6,GB,1720808290
170,dunedin,-45.8742,170.5036,4.33,84,9,3.58,NZ,1720808161
171,novoishimskiy,53.1981,66.7694,21.82,58,89,5.41,KZ,1720808293
172,tafresh,34.692,50.013,25.67,29,42,4.49,IR,1720808294
173,horta,38.5333,-28.6333,24.8,85,40,10.8,PT,1720808296
174,guiratinga,-16.3494,-53.7583,33.63,22,8,2.0,BR,1720808297
175,naze,28.3667,129.4833,27.51,84,100,5.04,JP,1720808298
176,clodomira,-27.5744,-64.1311,14.83,27,0,1.41,AR,1720808299
177,cururupu,-1.8283,-44.8683,31.84,43,83,2.48,BR,1720808300
178,owen sound,44.5672,-80.9435,26.21,76,21,0.89,CA,1720808302
179,kourou,5.1552,-52.6478,31.03,84,99,1.93,GF,1720808303
180,loughrea,53.1969,-8.5669,13.82,85,100,3.17,IE,1720808304
181,shendi,16.6915,33.4341,29.33,58,86,11.19,SD,1720808305
182,sagarejo,41.734,45.3315,26.24,44,59,2.31,GE,1720808306
183,svetlyy,54.675,20.1347,20.03,84,76,4.37,RU,1720808307
184,atafu village,-8.5421,-172.5159,28.0,78,52,7.35,TK,1720808309
185,illapel,-31.6308,-71.1653,13.81,38,0,2.37,CL,1720808310
186,aykhal,66.0,111.5,19.28,53,40,3.23,RU,1720808311
187,enriquillo,17.9,-71.2333,32.82,65,100,6.27,DO,1720808312
188,shache,38.4167,77.2406,27.3,27,33,3.95,CN,1720808313
189,howard springs,-12.497,131.047,19.95,76,100,2.18,AU,1720808315
190,badger,64.8,-147.5333,20.0,58,20,2.57,US,1720808316
191,pahrump,36.2083,-115.9839,41.91,8,36,3.58,US,1720808317
192,brisas de zicatela,15.8369,-97.0419,31.29,70,0,3.09,MX,1720808319
193,mugia,43.1041,-9.2179,20.09,78,97,8.67,ES,1720808320
194,itaueira,-7.6033,-43.0256,31.59,37,69,4.92,BR,1720808321
195,lompoc,34.6391,-120.4579,25.47,68,0,4.12,US,1720808322
196,christchurch,-43.5333,172.6333,5.51,88,75,1.54,NZ,1720808323
197,chernushka,56.5072,56.0766,14.86,79,97,7.23,RU,1720808324
198,san antonio de pale,-1.4014,5.6325,22.8,79,61,5.35,GQ,1720808326
199,chui,-33.6971,-53.4616,11.18,59,7,3.09,UY,1720808327
200,bodo,67.28,14.405,13.21,78,75,3.6,NO,1720808329
201,kabinda,-6.1333,24.4833,24.02,28,1,1.57,CD,1720808330
202,zuunmod,47.7069,106.9528,14.57,89,81,0.96,MN,1720808332
203,college,64.8569,-147.8028,20.05,58,20,2.57,US,1720808333
204,lata,40.1629,-8.3327,24.95,49,0,3.74,PT,1720808334
205,saint-lo,49.1162,-1.0903,16.24,82,63,2.22,FR,1720808336
206,puerto colombia,10.9878,-74.9547,32.05,75,73,6.32,CO,1720808337
207,pacific grove,36.6177,-121.9166,24.0,89,0,4.63,US,1720808338
208,axim,4.8699,-2.2405,24.82,85,98,4.67,GH,1720808340
209,turuntayevo,52.2,107.6167,15.05,98,100,1.49,RU,1720808343
210,debila,33.5167,6.95,41.04,13,0,2.06,DZ,1720808345
211,sanya,18.2431,109.505,28.09,94,20,2.0,CN,1720808346
212,velur,12.9333,79.1333,26.51,71,98,8.62,IN,1720808347
213,dampit,-8.2116,112.7493,19.64,97,85,1.1,ID,1720808348
214,arraial do cabo,-22.9661,-42.0278,22.98,88,75,5.66,BR,1720808349
215,beloyarskiy,63.7119,66.6722,12.48,83,100,3.05,RU,1720808350
216,rio grande,-32.035,-52.0986,13.06,63,8,5.44,BR,1720808158
217,nar'yan-mar,67.6713,53.087,11.8,66,100,0.88,RU,1720808353
218,boke,10.9409,-14.2967,26.01,90,100,2.36,GN,1720808354
219,saipan,15.1355,145.701,28.39,83,0,4.12,MP,1720808355
220,sandnessjoen,66.0217,12.6316,14.29,82,75,2.06,NO,1720808356
221,thinadhoo,0.5333,72.9333,29.09,74,23,5.15,MV,1720808357
222,kabare,-2.4683,28.8242,17.42,59,48,0.21,CD,1720808359
223,fort st. john,56.2499,-120.8529,17.94,52,75,1.54,CA,1720808360
224,vadso,70.0744,29.7487,15.09,77,75,3.6,NO,1720808361
225,konkwesso,10.8469,4.0984,27.41,69,84,2.64,NG,1720808362
226,hami,42.8,93.45,25.12,40,86,1.87,CN,1720808363
227,shiyan,32.6475,110.7781,23.9,94,78,0.6,CN,1720808364
228,viedma,-40.8135,-62.9967,11.43,32,0,6.54,AR,1720807954
229,forster,-32.1667,152.5167,11.27,84,45,5.54,AU,1720808367
230,raja,8.4596,25.678,22.56,86,83,1.83,SS,1720808368
231,colonia,50.9333,6.95,15.72,86,100,4.63,DE,1720808073
232,flying fish cove,-10.4217,105.6791,24.82,83,20,4.12,CX,1720808370
233,abepura,-2.6333,140.5833,23.45,100,75,0.51,ID,1720808371
234,buta,2.7858,24.73,23.44,89,65,0.87,CD,1720808372
235,constitucion,-35.3333,-72.4167,12.5,48,0,2.12,CL,1720808374
236,port mathurin,-19.6833,63.4167,22.89,71,32,11.87,MU,1720808375
237,lubbock,33.6001,-101.8338,34.65,26,20,3.6,US,1720807796
238,semnan,35.5729,53.3971,27.0,43,66,3.91,IR,1720808377
239,nikolayevsk-on-amure,53.1406,140.73,10.77,98,100,1.01,RU,1720808378
240,coronel dorrego,-38.7187,-61.2873,10.65,33,0,3.73,AR,1720808379
241,alotau,-10.3069,150.4462,22.51,96,100,2.42,PG,1720808381
242,ilulissat,69.2167,-51.1,9.01,61,40,2.06,GL,1720808382
243,aripuana,-9.1667,-60.6333,33.82,33,62,2.41,BR,1720808383
244,annau,37.8876,58.516,26.72,61,75,2.06,TM,1720808384
245,al jawf,29.5,38.75,33.78,18,0,3.26,SA,1720808385
246,alofi,-19.0595,-169.9187,20.94,88,20,3.09,NU,1720808388
247,asosa,10.0667,34.5333,16.51,86,100,1.92,ET,1720808389
248,megion,61.0296,76.1136,18.01,56,27,1.93,RU,1720808390
249,caceres,39.522,-6.3748,32.47,15,0,5.32,ES,1720808391
250,cidreira,-30.1811,-50.2056,12.83,74,92,4.45,BR,1720808392
251,mount isa,-20.7333,139.5,13.87,67,0,6.17,AU,1720808393
252,petropavlovsk-kamchatsky,53.0452,158.6483,8.33,93,20,3.0,RU,1720808395
253,faya-largeau,17.9257,19.1043,37.13,22,87,3.89,TD,1720808396
254,lagunas,-5.2269,-75.6753,32.06,46,91,2.38,PE,1720808397
255,stargard,53.3367,15.0499,23.11,84,97,5.44,PL,1720808398
256,bandar abbas,27.1865,56.2808,33.99,70,40,3.09,IR,1720808188
257,potanino,55.1786,61.6222,20.12,89,40,6.0,RU,1720808400
258,kharp,66.8014,65.8081,12.26,68,100,2.09,RU,1720808402
259,tarnogskiy gorodok,60.4997,43.5761,15.22,68,92,2.5,RU,1720808403
260,cantaura,9.3057,-64.3584,33.51,46,23,5.08,VE,1720808404
261,es castell,39.8795,4.2854,25.38,73,20,7.2,ES,1720808405
262,ad dilam,23.9915,47.1627,41.23,9,100,4.83,SA,1720808406
263,cabo san lucas,22.8909,-109.9124,32.56,57,20,2.68,MX,1720808150
264,bezhetsk,57.7851,36.6965,20.52,65,64,3.58,RU,1720808409
265,puerto baquerizo moreno,-0.9,-89.6,22.55,88,100,6.69,EC,1720808406
266,lazaro cardenas,17.9583,-102.2,31.1,61,86,2.17,MX,1720808411
267,wulingyuan,29.3494,110.5441,22.79,97,100,0.33,CN,1720808413
268,sierra grande,-41.606,-65.3557,12.26,25,0,4.39,AR,1720808414
269,noormarkku,61.5927,21.8685,16.88,88,0,3.09,FI,1720808416
270,egilsstadir,65.2653,-14.3948,17.95,52,0,7.2,IS,1720808417
271,pemangkat,1.1667,108.9667,27.3,72,95,4.07,ID,1720808418
272,butha-buthe,-28.8333,28.5,4.14,18,0,1.29,LS,1720808419
273,qarazhal,48.0078,70.7903,25.64,30,97,7.28,KZ,1720808420
274,yuzhno-kurilsk,44.0306,145.8556,13.87,99,100,1.47,RU,1720808421
275,harnosand,62.6323,17.9379,21.01,72,100,2.02,SE,1720808423
276,lihue,21.9789,-159.3672,24.77,85,100,5.66,US,1720808424
277,surigao,9.7839,125.4889,25.69,87,99,1.35,PH,1720808425
278,sinabang,2.4803,96.3801,26.24,81,98,1.0,ID,1720808426
279,sao tome,0.3365,6.7273,24.59,73,71,4.64,ST,1720808427
280,emerald,-23.5333,148.1667,14.08,77,23,3.77,AU,1720808428
281,czersk,53.7959,17.9765,18.59,81,89,4.98,PL,1720808429
282,saudarkrokur,65.7461,-19.6394,15.87,69,90,10.79,IS,1720808431
283,bela,25.9333,81.9833,31.42,66,57,2.42,IN,1720808432
284,kruisfontein,-34.0033,24.7314,13.82,61,73,0.35,ZA,1720808433
285,ketchikan,55.3422,-131.6461,16.3,72,100,4.12,US,1720808434
286,thurso,58.5927,-3.5259,13.14,97,100,4.22,GB,1720808436
287,lubao,14.9167,120.55,26.84,88,92,0.95,PH,1720808437
288,minas de marcona,-15.2119,-75.1103,16.99,47,21,6.76,PE,1720808438
289,amlagora,22.8333,87.3333,30.88,66,74,3.89,IN,1720808440
290,opuwo,-18.0607,13.84,17.7,21,70,2.77,NA,1720808441
291,broken hill,-31.95,141.4333,7.14,89,4,3.87,AU,1720808443
292,mili,6.0815,171.735,28.39,79,100,6.1,MH,1720808444
293,blonie,52.1985,20.6171,30.05,52,94,4.76,PL,1720808445
294,plettenberg bay,-34.0527,23.3716,15.17,53,100,2.87,ZA,1720808446
295,solleftea,63.1667,17.2667,20.92,65,100,1.99,SE,1720808447
296,namibe,-15.1961,12.1522,17.17,88,80,1.63,AO,1720808449
297,salinopolis,-0.6136,-47.3561,26.8,81,81,5.23,BR,1720808450
298,crucecita,-28.95,-58.9833,12.93,38,0,3.72,AR,1720808451
299,daun,50.2,6.8333,15.88,77,90,5.66,DE,1720808452
300,kirensk,57.7853,108.1119,19.18,99,97,2.43,RU,1720808454
301,constantia,44.1833,28.65,27.61,54,0,1.21,RO,1720808455
302,lys'va,58.1086,57.8053,11.82,98,100,4.05,RU,1720808288
303,happy valley-goose bay,53.3168,-60.3315,31.17,22,40,8.23,CA,1720808382
304,daru,-9.0763,143.2092,24.09,82,93,5.55,PG,1720808460
305,bredasdorp,-34.5322,20.0403,10.11,81,44,3.31,ZA,1720808461
306,natal,-5.795,-35.2094,27.12,74,75,9.26,BR,1720808377
307,san luis de la loma,17.2706,-100.8939,30.69,65,77,2.77,MX,1720808463
308,manaus,-3.1019,-60.025,33.28,62,40,4.63,BR,1720807828
309,tchamba,9.0333,1.4167,23.48,93,95,1.51,TG,1720808467
310,choibalsan,48.0667,114.5,22.07,58,55,3.89,MN,1720808468
311,chibougamau,49.9168,-74.3659,27.79,30,0,6.69,CA,1720808469
312,alakurtti,66.9672,30.3491,13.0,99,100,1.17,RU,1720808470
313,banes,20.9625,-75.7186,32.17,58,88,6.63,CU,1720808471
314,banposh,22.25,84.8,28.12,74,92,1.75,IN,1720808474
315,port-vila,-17.7338,168.3219,22.78,94,100,1.54,VU,1720808475
316,bafq,31.6128,55.4107,35.21,14,0,5.93,IR,1720808476
317,urangan,-25.3,152.9,16.47,63,14,4.12,AU,1720808477
318,carnarvon,-24.8667,113.6333,18.93,42,100,5.59,AU,1720808478
319,nuuk,64.1835,-51.7216,5.34,100,100,2.06,GL,1720808480
320,atuncolla,-15.6833,-70.15,15.03,13,8,9.86,PE,1720808481
321,masaka,-0.3338,31.7341,19.35,75,71,2.48,UG,1720808482
322,puerto maldonado,-12.6,-69.1833,18.22,77,100,3.6,PE,1720808484
323,port arthur,38.8,121.2667,22.12,79,87,4.19,CN,1720808485
324,ambon,-3.6954,128.1814,25.49,95,40,1.03,ID,1720808487
325,port lincoln,-34.7333,135.8667,11.29,85,5,2.47,AU,1720808488
326,amga,60.8953,131.9608,14.77,85,55,1.01,RU,1720808489
327,centar zupa,41.4681,20.5589,28.85,49,81,1.83,MK,1720808490
328,caleta de carquin,-11.0925,-77.6267,19.2,69,38,5.2,PE,1720808491
329,ocean shores,46.9737,-124.1563,15.01,87,100,2.57,US,1720808462
330,laibin,23.7,109.2667,26.54,90,99,1.83,CN,1720808494
331,duba,27.3513,35.6901,34.95,41,0,5.19,SA,1720808495
332,alaghsas,17.0187,8.0168,29.94,42,20,4.63,NE,1720808496
333,val-d'or,48.1002,-77.7828,28.05,32,20,3.09,CA,1720808498
334,penhalonga,-18.8911,32.6978,13.7,23,2,1.41,ZW,1720808499
335,cill airne,52.05,-9.5167,14.85,75,99,2.64,IE,1720808501
336,mossel bay,-34.1831,22.146,12.96,58,80,5.55,ZA,1720808502
337,chernyshevskiy,63.0128,112.4714,16.07,80,3,1.69,RU,1720808503
338,abaete,-19.16,-45.4458,30.45,23,0,2.42,BR,1720808413
339,guanica,17.9716,-66.908,33.4,77,10,8.28,PR,1720808505
340,hacienda huancane,-15.8222,-70.8856,8.57,10,11,11.73,PE,1720808506
341,akureyri,65.6835,-18.0878,18.96,52,40,15.43,IS,1720808508
342,yoko,5.5333,12.3167,19.86,92,95,0.63,CM,1720808509
343,ujae,8.9322,165.7642,28.47,79,100,8.28,MH,1720808510
344,santarem,-2.4431,-54.7083,31.07,70,75,5.14,BR,1720808511
345,ola,59.5833,151.2833,11.67,76,6,1.89,RU,1720808512
346,mastic beach,40.7668,-72.8521,27.27,88,100,5.66,US,1720808513
347,dudinka,69.4058,86.1778,18.64,75,100,3.16,RU,1720808515
348,batticaloa,7.7102,81.6924,28.23,72,50,2.26,LK,1720808516
349,barra de santo antonio,-9.4047,-35.5072,27.6,77,9,7.39,BR,1720808517
350,marsh harbour,26.5412,-77.0636,28.99,73,99,4.5,BS,1720808518
351,itoman,26.1247,127.6694,29.21,91,20,5.66,JP,1720808519
352,korocha,50.8107,37.1953,26.4,51,0,3.69,RU,1720808520
353,barah,13.7,30.3667,26.94,59,98,3.5,SD,1720808521
354,monze,-16.2833,27.4833,15.91,41,2,2.74,ZM,1720808523
355,northam,51.0333,-4.2167,17.01,80,78,4.21,GB,1720808524
356,nieuw amsterdam,5.8833,-55.0833,34.01,55,40,0.0,SR,1720808525
357,xai-xai,-25.0519,33.6442,20.91,34,0,2.87,MZ,1720808526
358,iquique,-20.2208,-70.1431,17.02,67,7,4.26,CL,1720807858
359,kavaratti,10.5669,72.642,27.43,86,100,6.65,IN,1720808529
360,okhotsk,59.3833,143.3,13.4,74,92,1.48,RU,1720808530
361,kerikeri,-35.2268,173.9474,6.06,90,100,2.24,NZ,1720808531
362,zahir pir,28.8124,70.524,39.25,31,3,9.49,PK,1720808532
363,kanchanaburi,14.6333,99.1,24.57,94,100,3.32,TH,1720808533
364,west valley,46.5921,-120.6051,31.1,29,0,2.24,US,1720808535
365,karratha,-20.7377,116.8463,20.95,65,0,0.84,AU,1720808536
366,porto novo,6.4965,2.6036,25.9,83,80,4.34,BJ,1720808258
367,cozumel,20.5083,-86.9458,32.04,66,75,7.2,MX,1720808347
368,jalai nur,49.45,117.7,19.0,64,100,2.27,CN,1720808539
369,szczecin,53.4289,14.553,23.19,65,100,5.81,PL,1720808540
370,georgetown,5.4112,100.3354,27.97,75,20,1.54,MY,1720808444
371,panama city beach,30.1766,-85.8055,35.07,59,75,3.13,US,1720808519
372,norilsk,69.3535,88.2027,18.99,76,100,2.28,RU,1720808345
373,puerto aysen,-45.4,-72.7,8.04,92,60,0.07,CL,1720808545
374,remire-montjoly,4.9167,-52.2667,31.02,70,75,3.6,GF,1720808546
375,coro,11.4045,-69.6734,31.15,65,87,9.88,VE,1720808547
376,murun-kuren,49.6342,100.1625,11.14,80,27,0.98,MN,1720808548
377,sebastopol,44.6,33.5333,28.33,40,31,0.45,UA,1720808549
378,bonthe,7.5264,-12.505,25.69,85,96,3.94,SL,1720808551
379,zhangye,38.9342,100.4517,22.98,46,60,1.93,CN,1720808552
380,belmonte,-15.8631,-38.8828,25.41,63,22,3.39,BR,1720808553
381,suzhou,31.3114,120.6181,23.98,99,98,0.83,CN,1720808554
382,san patricio,28.017,-97.5169,31.05,79,94,2.68,US,1720808555
383,severnoye,56.3491,78.3619,17.49,92,50,1.5,RU,1720808556
384,port saint john's,-31.6229,29.5448,19.32,73,2,2.47,ZA,1720808558
385,gizo,-8.103,156.8419,27.05,80,39,0.85,SB,1720808559
386,san elizario,31.5851,-106.2728,33.6,24,0,6.17,US,1720808560
387,hammerfest,70.6634,23.6821,11.25,82,75,5.66,NO,1720808561
388,kalasin,16.5,103.5,28.22,99,100,4.57,TH,1720808562
389,eraan,9.0629,117.7016,25.46,96,100,6.36,PH,1720808563
390,dongola,19.1667,30.4833,38.7,23,76,3.07,SD,1720808564
391,shiqian,27.5225,108.2281,24.36,89,100,1.6,CN,1720808566
392,tot'ma,59.9747,42.7642,15.59,68,94,2.19,RU,1720808567
393,sarangani,5.4033,125.4636,26.59,85,100,7.79,PH,1720808568
394,guiuan,11.0333,125.7247,28.17,78,100,2.29,PH,1720808569
395,agryz,56.5203,52.9942,13.22,67,66,4.45,RU,1720808570
396,howrah,22.5892,88.3103,28.0,89,40,1.54,IN,1720808571
397,dwarka,22.2394,68.9678,28.69,81,46,9.81,IN,1720808573
398,biograd na moru,43.9433,15.4519,33.39,58,0,3.61,HR,1720808574
399,contamana,-7.3333,-75.0167,33.11,41,87,2.41,PE,1720808575
400,chonchi,-42.6128,-73.8092,8.4,65,49,1.51,CL,1720808576
401,manturovo,58.3353,44.7619,14.0,69,16,2.37,RU,1720808577
402,bac lieu,9.285,105.7244,25.06,90,99,5.73,VN,1720808578
403,mokhsogollokh,61.4681,128.9203,13.63,93,7,1.23,RU,1720808579
404,sanchor,24.7553,71.7722,31.27,69,35,8.03,IN,1720808581
405,berezovyy,51.6667,135.7,10.96,86,65,1.68,RU,1720808582
406,laojunmiao,39.8333,97.7333,21.1,47,65,1.79,CN,1720808583
407,sinjai,-5.1241,120.253,21.76,83,36,2.34,ID,1720808584
408,niquelandia,-14.4739,-48.4597,32.27,18,0,3.98,BR,1720808585
409,pisco,-13.7,-76.2167,18.9,77,10,4.63,PE,1720808586
410,narrabri,-30.3167,149.7833,10.37,78,93,2.7,AU,1720808588
411,watampone,-4.5386,120.3279,22.47,88,68,2.01,ID,1720808589
412,necochea,-38.5473,-58.7368,10.12,51,2,3.18,AR,1720808474
413,kidal,18.4411,1.4078,38.26,23,65,6.15,ML,1720808591
414,xylofagou,34.9772,33.8492,30.45,87,0,4.65,CY,1720808592
415,quibala,-10.7337,14.98,18.5,42,6,2.05,AO,1720808593
416,kone,-21.0595,164.8658,19.75,95,0,2.35,NC,1720808594
417,nova vicosa,-17.8919,-39.3719,26.49,57,1,3.91,BR,1720808597
418,arteche,12.2645,125.4048,25.98,88,94,1.56,PH,1720808598
419,placido de castro,-10.3353,-67.1856,30.59,41,8,3.05,BR,1720808599
420,sur,22.5667,59.5289,32.57,59,84,6.59,OM,1720808601
421,tyn nad vltavou,49.2234,14.4206,20.71,100,97,1.4,CZ,1720808602
422,cobija,-11.0267,-68.7692,20.1,77,100,5.14,BO,1720808603
423,canico,32.6333,-16.85,26.35,65,20,7.2,PT,1720808605
424,hailar,49.2,119.7,17.56,61,57,3.37,CN,1720808606
425,juneau,58.3019,-134.4197,12.45,98,100,5.14,US,1720808587
426,francisco sa,-16.4758,-43.4883,30.08,18,2,4.26,BR,1720808609
427,nema,57.5067,50.5011,11.91,68,0,3.41,RU,1720808610
428,ubari,26.5921,12.7805,34.66,15,0,5.65,LY,1720808611
429,portland,45.5234,-122.6762,24.12,59,0,3.6,US,1720807859
430,chuguyevka,44.1653,133.8633,13.16,93,26,1.35,RU,1720808613
431,meadow lake,34.8014,-106.5436,32.9,26,0,4.46,US,1720808615
432,nurillo,26.267,-98.1214,31.75,68,20,4.63,US,1720808616
433,colonia menno,-22.3667,-59.8167,12.16,45,100,4.76,PY,1720808617
434,rumonge,-3.9736,29.4386,23.53,52,17,1.81,BI,1720808618
435,gorontalo,0.5412,123.0595,22.74,96,98,1.23,ID,1720808619
436,susuman,62.7833,148.1667,17.39,55,92,0.98,RU,1720808620
437,nadym,65.5333,72.5167,12.57,78,66,7.58,RU,1720808622
438,onega,63.9061,38.1404,16.27,79,100,4.37,RU,1720808623
439,superior,46.7208,-92.1041,30.97,54,75,6.69,US,1720808509
440,savanna-la-mar,18.219,-78.1332,31.07,61,89,4.6,JM,1720808625
441,cuito,-12.3833,16.9333,14.42,16,18,0.99,AO,1720808626
442,chechat,24.7667,75.8833,27.35,78,100,2.73,IN,1720808627
443,dubai,25.2582,55.3047,35.96,59,0,2.06,AE,1720808337
444,ixtapa-zihuatanejo,17.6333,-101.55,34.05,49,40,5.14,MX,1720808630
445,belyy yar,53.6039,91.3903,17.94,72,0,2.0,RU,1720808631
446,miles city,46.4083,-105.8406,34.54,24,0,6.69,US,1720808632
447,saynshand,44.8824,110.1163,25.1,44,99,3.89,MN,1720808633
448,nuriootpa,-34.4833,139.0,9.25,98,82,2.12,AU,1720808634
449,tsiombe,-25.3,45.4833,18.25,65,0,1.69,MG,1720808636
450,fort frances,48.5999,-93.4003,31.2,46,20,4.12,CA,1720808637
451,quellon,-43.1167,-73.6167,8.59,76,51,4.77,CL,1720808638
452,maridi,4.9158,29.4742,19.99,89,65,1.94,SS,1720808639
453,juticalpa,14.65,-86.2,33.08,76,100,1.46,HN,1720808640
454,chojnice,53.6955,17.557,23.15,76,75,5.93,PL,1720808641
455,lengshuitan,26.4111,111.5956,26.94,80,100,3.03,CN,1720808643
456,pandan,14.0453,124.1694,26.07,90,74,2.44,PH,1720808644
457,mabaruma,8.2,-59.7833,31.37,56,92,2.89,GY,1720808645
458,westport,41.1415,-73.3579,27.38,80,100,2.57,US,1720808646
459,sungai penuh,-2.0833,101.3833,18.75,96,100,0.89,ID,1720808648
460,bardai,11.65,7.2333,25.93,70,96,3.68,NG,1720808649
461,grande prairie,55.1667,-118.8027,21.1,35,40,3.6,CA,1720808449
462,pointe-noire,-4.7761,11.8635,20.92,79,36,2.93,CG,1720808651
463,ebon,4.582,168.6964,28.76,77,100,6.16,MH,1720808652
464,vila velha,-20.3297,-40.2925,29.97,67,0,6.17,BR,1720808432
465,suva,-18.1416,178.4415,19.71,100,75,1.54,FJ,1720808654
466,zaozersk,69.4005,32.4476,13.43,94,100,4.82,RU,1720808656
467,dakhla,23.6848,-15.958,22.01,78,25,13.89,EH,1720808657
468,argo,37.6333,22.7333,30.99,41,22,0.53,GR,1720808658
469,chaoyang,41.5703,120.4586,21.58,91,100,0.92,CN,1720808659
470,belo sur tsiribihina,-19.7,44.55,19.92,89,1,0.59,MG,1720808660
471,starokostiantyniv,49.7576,27.2034,26.38,56,7,2.29,UA,1720808661
472,santana,-0.0583,-51.1817,32.1,62,40,4.12,BR,1720808663
473,korla,41.7597,86.1469,25.59,32,82,5.11,CN,1720808664
474,porbandar,21.6422,69.6093,28.4,84,98,9.65,IN,1720808665
475,the pas,53.8251,-101.2541,18.01,88,100,4.12,CA,1720808666
476,mata-utu,-13.2816,-176.1745,26.86,82,72,7.06,WF,1720808667
477,nachingwea,-10.3833,38.7667,21.74,64,99,2.12,TZ,1720808668
478,kashgar,39.4547,75.9797,24.56,35,20,7.0,CN,1720808669
479,hadibu,12.65,54.0333,26.88,76,68,10.33,YE,1720808671
480,shuangyang,43.5242,125.6736,19.94,95,93,2.35,CN,1720808672
481,gadzhiyevo,69.2551,33.3362,13.84,95,100,2.48,RU,1720808673
482,manokwari,-0.8667,134.0833,25.96,79,100,1.52,ID,1720808674
483,palmer,42.1584,-72.3287,30.29,62,49,3.95,US,1720808582
484,inyonga,-6.7167,32.0667,20.26,31,74,2.31,TZ,1720808676
485,makar'yev,57.8797,43.8069,15.53,63,24,2.81,RU,1720808678
486,el calafate,-50.3408,-72.2768,5.31,79,99,2.52,AR,1720808679
487,harnai,30.1005,67.9374,34.4,27,0,0.6,PK,1720808680
488,port douglas,-16.4833,145.4667,20.04,82,8,1.69,AU,1720808681
489,kolyvan',55.3053,82.7391,15.79,79,23,1.86,RU,1720808682
490,vilyuchinsk,52.9306,158.4028,9.15,87,65,1.35,RU,1720808683
491,imam qasim,32.298,44.6828,44.03,11,0,9.01,IQ,1720808684
492,arimalam,10.2667,78.9,27.89,79,89,3.85,IN,1720808686
493,elmina,5.0898,-1.348,24.7,87,98,5.26,GH,1720808687
494,arari,-3.4536,-44.78,34.77,31,100,2.44,BR,1720808688
495,nyala,12.05,24.8833,31.92,40,18,2.95,SD,1720808689
496,new norfolk,-42.7826,147.0587,7.06,85,84,0.98,AU,1720808690
497,picota,-6.9197,-76.3304,33.27,51,73,1.05,PE,1720808691
498,jiaozuo,35.2397,113.2331,26.83,76,97,1.62,CN,1720808692
499,sisimiut,66.9395,-53.6735,6.19,82,99,3.86,GL,1720808694
500,slave lake,55.2834,-114.769,16.99,63,100,7.72,CA,1720808540
501,sena madureira,-9.0656,-68.6569,32.78,39,51,2.46,BR,1720808697
502,crane,31.3974,-102.3501,31.79,30,0,4.84,US,1720808698
503,woolgoolga,-30.1106,153.2007,8.91,71,32,2.46,AU,1720808699
504,cabinda,-5.55,12.2,21.36,80,96,3.15,AO,1720808701
505,nishinoomote,30.7333,131.0,27.58,82,100,3.01,JP,1720808702
506,safotu,-13.4513,-172.4018,26.53,88,93,7.39,WS,1720808703
507,pervomayskoye,43.919,46.7102,25.29,59,87,3.68,RU,1720808704
508,guijuelo,40.5576,-5.6707,29.05,19,0,4.13,ES,1720808705
509,labytnangi,66.6572,66.4183,12.42,65,100,1.62,RU,1720808706
510,tondano,1.3038,124.9112,20.05,100,100,0.67,ID,1720808708
511,basco,20.4487,121.9702,29.72,76,90,5.94,PH,1720808709
512,armacao de buzios,-22.7469,-41.8817,23.09,76,82,7.07,BR,1720808710
513,kailua-kona,19.6406,-155.9956,25.54,80,2,1.06,US,1720808711
514,jurilovca,44.7667,28.8667,28.05,50,1,1.08,RO,1720808712
515,baidoa,3.1138,43.6498,23.61,80,98,7.91,SO,1720808713
516,arica,-18.475,-70.3042,19.75,55,0,6.17,CL,1720808254
517,canto do buriti,-8.11,-42.9444,31.85,36,75,4.92,BR,1720808716
518,merizo village,13.2658,144.6691,27.85,93,96,4.77,GU,1720808717
519,island harbour,50.724,-1.2758,18.35,77,88,0.89,GB,1720808718
520,leua,48.2156,18.6071,30.07,46,78,5.9,SK,1720808720
521,bengkulu,-3.8004,102.2655,24.61,89,91,1.61,ID,1720808722
522,pyu,18.4833,96.4333,24.87,93,100,2.45,MM,1720808723
523,lerwick,60.1545,-1.1494,14.0,87,96,4.19,GB,1720808724
524,veshenskaya,49.6303,41.7334,21.0,44,0,4.14,RU,1720808725
525,simitli,41.8833,23.1167,30.32,33,25,2.55,BG,1720808726
526,aksu,41.1231,80.2644,23.02,43,88,4.49,CN,1720808727
527,kavieng,-2.5744,150.7967,27.5,78,95,2.64,PG,1720808728
528,yanchep,-31.55,115.6833,12.75,77,100,2.65,AU,1720808730
529,burao,9.5221,45.5336,28.09,40,76,9.68,SO,1720808731
530,angaur state,6.906,134.13,27.74,79,100,5.26,PW,1720808732
531,novoazovs'k,47.1139,38.086,28.1,37,26,5.8,UA,1720808733
532,san mariano,7.5,126.0,22.39,98,100,0.79,PH,1720808734
533,bathurst,-33.4166,149.5806,7.76,87,100,0.45,AU,1720808735
534,heunghae,36.1125,129.3522,20.05,94,99,0.95,KR,1720808736
535,jaisalmer,26.9147,70.9181,31.88,57,59,11.91,IN,1720808738
536,san jose,37.3394,-121.895,33.61,47,0,2.57,US,1720808589
537,nieuw nickerie,5.95,-56.9833,28.17,74,92,5.35,SR,1720808741
538,tbeng meanchey,13.8167,104.9667,23.38,97,99,1.09,KH,1720808742
539,itaituba,-4.2761,-55.9836,34.09,55,40,2.57,BR,1720808743
540,lhokseumawe,5.1801,97.1507,26.4,86,100,1.83,ID,1720808745
541,reidsville,36.3549,-79.6645,26.42,85,100,2.06,US,1720808563
542,selfoss,63.9331,-20.9971,12.25,96,100,8.48,IS,1720808747
543,el vendrell,41.2167,1.5333,28.53,73,50,4.38,ES,1720808748
544,yeniseysk,58.4497,92.1703,13.53,91,43,1.63,RU,1720808749
545,katima mulilo,-17.5,24.2667,17.86,15,4,2.5,NA,1720808750
546,bandarbeyla,9.4942,50.8122,25.48,85,13,14.72,SO,1720808753
547,zubova polyana,54.0771,42.8372,16.98,66,2,1.88,RU,1720808754
548,leku,6.8667,38.45,16.39,89,93,2.03,ET,1720808757
549,north adams,42.7009,-73.1087,29.0,58,40,3.09,US,1720808758
550,camiri,-20.05,-63.5167,13.88,41,82,0.0,BO,1720808759
551,cassilandia,-19.1133,-51.7342,29.59,36,69,3.02,BR,1720808760
552,isoka,-10.1606,32.6335,15.71,44,35,1.42,ZM,1720808761
553,mejit,10.2753,170.8646,27.89,81,32,9.23,MH,1720808762
554,dzilam gonzalez,21.2833,-88.9333,34.67,44,36,2.42,MX,1720808764
555,popondetta,-8.7537,148.2534,23.19,94,100,0.55,PG,1720808765
556,ixtapa,20.7,-105.2,29.01,79,100,2.24,MX,1720808766
557,rouissat,31.9243,5.3502,43.04,10,0,2.06,DZ,1720808767
558,betioky,-23.7167,44.3833,17.06,59,0,1.76,MG,1720808768
559,talara,-4.5772,-81.2719,25.42,61,0,9.69,PE,1720808769
560,vila franca do campo,37.7167,-25.4333,23.23,88,98,5.22,PT,1720808771
561,velikiye luki,56.34,30.5452,21.17,88,47,1.27,RU,1720808772
562,fort bragg,35.139,-79.006,24.91,93,100,2.57,US,1720808774
563,nichinan,31.6,131.3667,23.82,97,100,1.22,JP,1720808775
564,mankato,44.1636,-93.9994,28.31,54,0,5.14,US,1720808774
565,weno,7.4515,151.8468,27.97,74,75,5.14,FM,1720808777
566,bilozerka,46.6248,32.4425,27.96,38,85,1.93,UA,1720808779
567,jurbarkas,55.0778,22.7664,21.7,77,73,2.6,LT,1720808780
568,saint marys,30.7305,-81.5465,35.57,54,40,4.63,US,1720808781
